[{"name":"Sand Rock","url":"https://www.mountainproject.com/area/105905184/sand-rock","state":"AL","lat":34.18,"lng":-85.817},{"name":"Jamestown","url":"https://www.mountainproject.com/area/105905660/jamestown","state":"AL","lat":34.411,"lng":-85.574},{"name":"Palisades Park","url":"https://www.mountainproject.com/area/105914427/palisades-park","state":"AL","lat":33.96,"lng":-86.477},{"name":"Anchorage & South Central Ice Climbing ","url":"https://www.mountainproject.com/area/105909315/anchorage-south-central-ice-climbing","state":"AK","lat":61.213,"lng":-149.867},{"name":"Denali National Park","url":"https://www.mountainproject.com/area/105909817/denali-national-park","state":"AK","lat":63.065,"lng":-151.172},{"name":"Seward Highway","url":"https://www.mountainproject.com/area/105991968/seward-highway","state":"AK","lat":61.058,"lng":-149.798},{"name":"Cochise Stronghold","url":"https://www.mountainproject.com/area/105738034/cochise-stronghold","state":"AZ","lat":31.921,"lng":-109.987},{"name":"Sedona Area","url":"https://www.mountainproject.com/area/105787793/sedona-area","state":"AZ","lat":34.868,"lng":-111.762},{"name":"Paradise Forks","url":"https://www.mountainproject.com/area/105787813/paradise-forks","state":"AZ","lat":35.138,"lng":-112.028},{"name":"Winslow Wall","url":"https://www.mountainproject.com/area/105989250/winslow-wall","state":"AZ","lat":34.942,"lng":-110.663},{"name":"Mount Lemmon (Santa Catalina Mountains)","url":"https://www.mountainproject.com/area/106822076/mount-lemmon-santa-catalina-mountains","state":"AZ","lat":32.447,"lng":-110.791},{"name":"Sam's Throne & Surroundings","url":"https://www.mountainproject.com/area/105901033/sams-throne-surroundings","state":"AR","lat":35.858,"lng":-93.044},{"name":"Horseshoe Canyon Ranch","url":"https://www.mountainproject.com/area/105903004/horseshoe-canyon-ranch","state":"AR","lat":36.012,"lng":-93.292},{"name":"Joshua Tree National Park","url":"https://www.mountainproject.com/area/105720495/joshua-tree-national-park","state":"CA","lat":34.012,"lng":-116.168},{"name":"Lover's Leap","url":"https://www.mountainproject.com/area/105733959/lovers-leap","state":"CA","lat":38.799,"lng":-120.135},{"name":"Tahquitz & Suicide Rocks","url":"https://www.mountainproject.com/area/105788020/tahquitz-suicide-rocks","state":"CA","lat":33.761,"lng":-116.679},{"name":"High Sierra","url":"https://www.mountainproject.com/area/105791817/high-sierra","state":"CA","lat":37.276,"lng":-118.677},{"name":"Sierra Eastside","url":"https://www.mountainproject.com/area/105798288/sierra-eastside","state":"CA","lat":37.335,"lng":-118.499},{"name":"Lake Tahoe","url":"https://www.mountainproject.com/area/105798291/lake-tahoe","state":"CA","lat":39.09,"lng":-120.065},{"name":"Yosemite National Park","url":"https://www.mountainproject.com/area/105833381/yosemite-national-park","state":"CA","lat":37.74,"lng":-119.573},{"name":"The Needles / Kern River","url":"https://www.mountainproject.com/area/105834180/the-needles-kern-river","state":"CA","lat":36.121,"lng":-118.504},{"name":"Owens River Gorge","url":"https://www.mountainproject.com/area/105843226/owens-river-gorge","state":"CA","lat":37.446,"lng":-118.572},{"name":"Southern Sierra","url":"https://www.mountainproject.com/area/107098288/southern-sierra","state":"CA","lat":36.51,"lng":-118.536},{"name":"Boulder Canyon","url":"https://www.mountainproject.com/area/105744222/boulder-canyon","state":"CO","lat":40.002,"lng":-105.41},{"name":"Lumpy Ridge","url":"https://www.mountainproject.com/area/105744228/lumpy-ridge","state":"CO","lat":40.403,"lng":-105.518},{"name":"Eldorado Canyon SP","url":"https://www.mountainproject.com/area/105744246/eldorado-canyon-sp","state":"CO","lat":39.932,"lng":-105.281},{"name":"Shelf Road","url":"https://www.mountainproject.com/area/105744267/shelf-road","state":"CO","lat":38.63,"lng":-105.223},{"name":"Rifle Mountain Park","url":"https://www.mountainproject.com/area/105744310/rifle-mountain-park","state":"CO","lat":39.716,"lng":-107.691},{"name":"RMNP - Rock","url":"https://www.mountainproject.com/area/105744460/rmnp-rock","state":"CO","lat":40.375,"lng":-105.616},{"name":"Alpine Rock","url":"https://www.mountainproject.com/area/105744466/alpine-rock","state":"CO","lat":40.257,"lng":-105.657},{"name":"Flatirons","url":"https://www.mountainproject.com/area/105797700/flatirons","state":"CO","lat":39.983,"lng":-105.289},{"name":"South Platte","url":"https://www.mountainproject.com/area/105797719/south-platte","state":"CO","lat":39.417,"lng":-105.469},{"name":"Grand Junction Area","url":"https://www.mountainproject.com/area/105802036/grand-junction-area","state":"CO","lat":39.081,"lng":-108.522},{"name":"Gunnison","url":"https://www.mountainproject.com/area/105802040/gunnison","state":"CO","lat":38.545,"lng":-106.928},{"name":"CO Ice & Mixed","url":"https://www.mountainproject.com/area/105807296/co-ice-mixed","state":"CO","lat":38.994,"lng":-105.93},{"name":"Central Valley","url":"https://www.mountainproject.com/area/106076672/central-valley","state":"CT","lat":41.63,"lng":-72.81},{"name":"CT Bouldering","url":"https://www.mountainproject.com/area/106359692/ct-bouldering","state":"CT","lat":41.364,"lng":-72.564},{"name":"Lost Wall","url":"https://www.mountainproject.com/area/105900335/lost-wall","state":"GA","lat":34.667,"lng":-85.371},{"name":"Mount Yonah","url":"https://www.mountainproject.com/area/105941346/mount-yonah","state":"GA","lat":34.637,"lng":-83.714},{"name":"Mokule'ia Wall","url":"https://www.mountainproject.com/area/106457411/mokuleia-wall","state":"HI","lat":21.578,"lng":-158.229},{"name":"City of Rocks","url":"https://www.mountainproject.com/area/105739322/city-of-rocks","state":"ID","lat":42.078,"lng":-113.724},{"name":"Castle Rocks","url":"https://www.mountainproject.com/area/105739331/castle-rocks","state":"ID","lat":42.135,"lng":-113.67},{"name":"Massacre Rocks","url":"https://www.mountainproject.com/area/105886274/massacre-rocks","state":"ID","lat":42.675,"lng":-112.998},{"name":"The Sawtooth Range","url":"https://www.mountainproject.com/area/105905571/the-sawtooth-range","state":"ID","lat":44.149,"lng":-114.918},{"name":"The Fins","url":"https://www.mountainproject.com/area/108134051/the-fins","state":"ID","lat":43.731,"lng":-113.084},{"name":"Jackson Falls","url":"https://www.mountainproject.com/area/106017458/jackson-falls","state":"IL","lat":37.507,"lng":-88.682},{"name":"Giant City State Park","url":"https://www.mountainproject.com/area/106612569/giant-city-state-park","state":"IL","lat":37.598,"lng":-89.188},{"name":"The Holy Boulders","url":"https://www.mountainproject.com/area/108116766/the-holy-boulders","state":"IL","lat":37.618,"lng":-89.415},{"name":"Red River Gorge","url":"https://www.mountainproject.com/area/105841134/red-river-gorge","state":"KY","lat":37.784,"lng":-83.682},{"name":"Acadia National Park","url":"https://www.mountainproject.com/area/105948980/acadia-national-park","state":"ME","lat":44.34,"lng":-68.258},{"name":"Munising","url":"https://www.mountainproject.com/area/105886705/munising","state":"MI","lat":46.41,"lng":-86.65},{"name":"Barn Bluff (Red Wing)","url":"https://www.mountainproject.com/area/105812663/barn-bluff-red-wing","state":"MN","lat":44.57,"lng":-92.527},{"name":"Gallatin Canyon","url":"https://www.mountainproject.com/area/105941836/gallatin-canyon","state":"MT","lat":45.407,"lng":-111.225},{"name":"Red Rock","url":"https://www.mountainproject.com/area/105731932/red-rock","state":"NV","lat":36.131,"lng":-115.425},{"name":"Mount Charleston","url":"https://www.mountainproject.com/area/105850026/mount-charleston","state":"NV","lat":36.272,"lng":-115.695},{"name":"Rumney","url":"https://www.mountainproject.com/area/105867829/rumney","state":"NH","lat":43.802,"lng":-71.837},{"name":"Cathedral Ledge","url":"https://www.mountainproject.com/area/105908823/cathedral-ledge","state":"NH","lat":44.064,"lng":-71.166},{"name":"Whitehorse Ledge","url":"https://www.mountainproject.com/area/105909079/whitehorse-ledge","state":"NH","lat":44.055,"lng":-71.167},{"name":"Pawtuckaway","url":"https://www.mountainproject.com/area/105929413/pawtuckaway","state":"NH","lat":43.114,"lng":-71.177},{"name":" Ice and Mixed Climbing","url":"https://www.mountainproject.com/area/106099658/ice-and-mixed-climbing","state":"NH","lat":44.037,"lng":-71.119},{"name":"Cannon Cliff ","url":"https://www.mountainproject.com/area/107340274/cannon-cliff","state":"NH","lat":44.159,"lng":-71.685},{"name":"Sundown Ledge","url":"https://www.mountainproject.com/area/107756087/sundown-ledge","state":"NH","lat":44.007,"lng":-71.232},{"name":"Sandia Mountains","url":"https://www.mountainproject.com/area/105788177/sandia-mountains","state":"NM","lat":35.211,"lng":-106.45},{"name":"El Rito","url":"https://www.mountainproject.com/area/105788273/el-rito","state":"NM","lat":36.344,"lng":-106.19},{"name":"Organ Mountains","url":"https://www.mountainproject.com/area/105789445/organ-mountains","state":"NM","lat":32.35,"lng":-106.566},{"name":"Enchanted Tower","url":"https://www.mountainproject.com/area/105789938/enchanted-tower","state":"NM","lat":34.23,"lng":-107.917},{"name":"Taos Area","url":"https://www.mountainproject.com/area/105868955/taos-area","state":"NM","lat":36.406,"lng":-105.574},{"name":"The Gunks","url":"https://www.mountainproject.com/area/105798167/the-gunks","state":"NY","lat":41.736,"lng":-74.191},{"name":"Adirondacks","url":"https://www.mountainproject.com/area/105910378/adirondacks","state":"NY","lat":43.938,"lng":-74.378},{"name":"Linville Gorge","url":"https://www.mountainproject.com/area/105873285/linville-gorge","state":"NC","lat":35.887,"lng":-81.885},{"name":"Looking Glass Rock","url":"https://www.mountainproject.com/area/105873294/looking-glass-rock","state":"NC","lat":35.295,"lng":-82.788},{"name":"Stone Mountain","url":"https://www.mountainproject.com/area/105873297/stone-mountain","state":"NC","lat":36.392,"lng":-81.047},{"name":"Laurel Knob","url":"https://www.mountainproject.com/area/105888014/laurel-knob","state":"NC","lat":35.15,"lng":-83.056},{"name":"Rumbling Bald","url":"https://www.mountainproject.com/area/105891895/rumbling-bald","state":"NC","lat":35.449,"lng":-82.214},{"name":"Moore's Wall","url":"https://www.mountainproject.com/area/105932741/moores-wall","state":"NC","lat":36.398,"lng":-80.292},{"name":"Quartz Mountain","url":"https://www.mountainproject.com/area/105854470/quartz-mountain","state":"OK","lat":34.891,"lng":-99.301},{"name":"Wichita Wildlife Refuge","url":"https://www.mountainproject.com/area/105858670/wichita-wildlife-refuge","state":"OK","lat":34.711,"lng":-98.623},{"name":"Smith Rock","url":"https://www.mountainproject.com/area/105788989/smith-rock","state":"OR","lat":44.366,"lng":-121.143},{"name":"Mt. Hood","url":"https://www.mountainproject.com/area/105789896/mt-hood","state":"OR","lat":45.373,"lng":-121.696},{"name":"Birdsboro Quarry","url":"https://www.mountainproject.com/area/106214658/birdsboro-quarry","state":"PA","lat":40.254,"lng":-75.814},{"name":"Safe Harbor","url":"https://www.mountainproject.com/area/107374703/safe-harbor","state":"PA","lat":39.935,"lng":-76.385},{"name":"Spearfish Canyon","url":"https://www.mountainproject.com/area/105714282/spearfish-canyon","state":"SD","lat":44.458,"lng":-103.859},{"name":"Custer State Park","url":"https://www.mountainproject.com/area/106058091/custer-state-park","state":"SD","lat":43.844,"lng":-103.563},{"name":"The Tennessee Wall","url":"https://www.mountainproject.com/area/105851828/the-tennessee-wall","state":"TN","lat":35.072,"lng":-85.403},{"name":"Foster Falls","url":"https://www.mountainproject.com/area/105883248/foster-falls","state":"TN","lat":35.182,"lng":-85.674},{"name":"Sunset Park","url":"https://www.mountainproject.com/area/105888070/sunset-park","state":"TN","lat":34.999,"lng":-85.355},{"name":"Hueco Tanks","url":"https://www.mountainproject.com/area/105810691/hueco-tanks","state":"TX","lat":31.917,"lng":-106.043},{"name":"Enchanted Rock State Natural Area","url":"https://www.mountainproject.com/area/105855196/enchanted-rock-state-natural-area","state":"TX","lat":30.503,"lng":-98.821},{"name":"Moab Area","url":"https://www.mountainproject.com/area/105716711/moab-area","state":"UT","lat":38.563,"lng":-109.542},{"name":"Indian Creek","url":"https://www.mountainproject.com/area/105716763/indian-creek","state":"UT","lat":38.026,"lng":-109.54},{"name":"Castle Valley","url":"https://www.mountainproject.com/area/105716784/castle-valley","state":"UT","lat":38.684,"lng":-109.423},{"name":"Fisher Towers","url":"https://www.mountainproject.com/area/105716787/fisher-towers","state":"UT","lat":38.724,"lng":-109.308},{"name":"Zion National Park","url":"https://www.mountainproject.com/area/105716799/zion-national-park","state":"UT","lat":37.259,"lng":-112.973},{"name":"Wasatch Range","url":"https://www.mountainproject.com/area/105739213/wasatch-range","state":"UT","lat":40.562,"lng":-111.687},{"name":"Maple Canyon","url":"https://www.mountainproject.com/area/105739298/maple-canyon","state":"UT","lat":39.556,"lng":-111.687},{"name":"San Rafael Swell","url":"https://www.mountainproject.com/area/105787863/san-rafael-swell","state":"UT","lat":38.853,"lng":-110.701},{"name":"Joe's Valley","url":"https://www.mountainproject.com/area/105880382/joes-valley","state":"UT","lat":39.277,"lng":-111.174},{"name":"Lake Willoughby","url":"https://www.mountainproject.com/area/105891650/lake-willoughby","state":"VT","lat":44.742,"lng":-72.048},{"name":"Vermont Ice Climbing","url":"https://www.mountainproject.com/area/107280521/vermont-ice-climbing","state":"VT","lat":44.226,"lng":-72.587},{"name":"Grayson Highlands State Park","url":"https://www.mountainproject.com/area/106477419/grayson-highlands-state-park","state":"VA","lat":36.612,"lng":-81.491},{"name":"Exit 32 / Little Si","url":"https://www.mountainproject.com/area/105789876/exit-32-little-si","state":"WA","lat":47.498,"lng":-121.756},{"name":"Index ","url":"https://www.mountainproject.com/area/105790635/index","state":"WA","lat":47.82,"lng":-121.556},{"name":"Vantage (Frenchman Coulee)","url":"https://www.mountainproject.com/area/105792231/vantage-frenchman-coulee","state":"WA","lat":47.025,"lng":-119.969},{"name":"Tieton River","url":"https://www.mountainproject.com/area/105921237/tieton-river","state":"WA","lat":46.684,"lng":-120.958},{"name":"The New River Gorge","url":"https://www.mountainproject.com/area/105855991/the-new-river-gorge","state":"WV","lat":38.072,"lng":-81.081},{"name":"Seneca Rocks","url":"https://www.mountainproject.com/area/105861910/seneca-rocks","state":"WV","lat":38.834,"lng":-79.366},{"name":"Summersville and Gauley River","url":"https://www.mountainproject.com/area/105989762/summersville-and-gauley-river","state":"WV","lat":38.236,"lng":-80.855},{"name":"Devil's Lake","url":"https://www.mountainproject.com/area/105729927/devils-lake","state":"WI","lat":43.417,"lng":-89.732},{"name":"Governor Dodge State Park","url":"https://www.mountainproject.com/area/105730030/governor-dodge-state-park","state":"WI","lat":43.027,"lng":-90.104},{"name":"Devil's Lake Bouldering","url":"https://www.mountainproject.com/area/106513891/devils-lake-bouldering","state":"WI","lat":43.415,"lng":-89.732},{"name":"Devil's Tower","url":"https://www.mountainproject.com/area/105714267/devils-tower","state":"WY","lat":44.59,"lng":-104.717},{"name":"Vedauwoo","url":"https://www.mountainproject.com/area/105744307/vedauwoo","state":"WY","lat":41.185,"lng":-105.378},{"name":"Grand Teton National Park","url":"https://www.mountainproject.com/area/105802912/grand-teton-national-park","state":"WY","lat":43.741,"lng":-110.803},{"name":"Wind River Range","url":"https://www.mountainproject.com/area/105823538/wind-river-range","state":"WY","lat":42.755,"lng":-109.204},{"name":"Sinks Canyon","url":"https://www.mountainproject.com/area/105827053/sinks-canyon","state":"WY","lat":42.739,"lng":-108.83},{"name":"Rock Springs Buttress","url":"https://www.mountainproject.com/area/105833991/rock-springs-buttress","state":"WY","lat":43.588,"lng":-110.87},{"name":"Wild Iris","url":"https://www.mountainproject.com/area/105840796/wild-iris","state":"WY","lat":42.579,"lng":-108.718}]